[{"dealername":"\u9806\u76ca","name":"\u7af9\u5317","address":"\u65b0\u7af9\u7e23\u7af9\u5317\u5e02\u4e2d\u83ef\u8def482\u865f","tel":"(03)5515877","fullname":"\u9806\u76ca\u6c7d\u8eca\u7af9\u5317\u5c55\u793a\u4e2d\u5fc3","business_time":"\u9031\u4e00\u81f3\u9031\u65e508:30-21:00","latitude":"24.842177","longitude":"121.005717"},{"dealername":"\u532f\u8c50","name":"\u5f70\u5316","address":"\u5f70\u5316\u7e23\u5f70\u5316\u5e02\u4e2d\u592e\u8def188\u865f","tel":"(04)7611971","fullname":"\u532f\u8c50\u6c7d\u8eca\u5f70\u5316\u5c55\u793a\u4e2d\u5fc3","business_time":"\u9031\u4e00\u81f3\u9031\u65e508:30-21:00","latitude":"24.065934","longitude":"120.529191"},{"dealername":"\u9806\u76ca","name":"\u6c11\u6b0a","address":"\u81fa\u5317\u5e02\u4e2d\u5c71\u5340\u6c11\u6b0a\u6771\u8def\u4e8c\u6bb5150\u865f","tel":"(02)25173030","fullname":"\u9806\u76ca\u6c7d\u8eca\u6c11\u6b0a\u5c55\u793a\u4e2d\u5fc3","business_time":"\u9031\u4e00\u81f3\u9031\u65e508:30-21:00","latitude":"25.062296","longitude":"121.534432"},{"dealername":"\u9806\u76ca","name":"\u6ff1\u6c5f","address":"\u81fa\u5317\u5e02\u4e2d\u5c71\u5340\u6ff1\u6c5f\u8857309\u865f","tel":"(02)25180699","fullname":"\u9806\u76ca\u6c7d\u8eca\u6ff1\u6c5f\u5c55\u793a\u4e2d\u5fc3","business_time":"\u9031\u4e00\u81f3\u9031\u65e508:30-21:00","latitude":"25.072613","longitude":"121.546227"},{"dealername":"\u9806\u76ca","name":"\u5167\u6e56","address":"\u81fa\u5317\u5e02\u5167\u6e56\u5340\u6c11\u6b0a\u6771\u8def\u516d\u6bb513\u4e4b15\u865f","tel":"(02)27912211","fullname":"\u9806\u76ca\u6c7d\u8eca\u5167\u6e56\u5c55\u793a\u4e2d\u5fc3","business_time":"\u9031\u4e00\u81f3\u9031\u65e508:30-21:00","latitude":"25.06723","longitude":"121.579172"},{"dealername":"\u9806\u76ca","name":"\u65b0\u5e97","address":"\u65b0\u5317\u5e02\u65b0\u5e97\u5340\u4e2d\u6b63\u8def468\u4e4b3\u865f","tel":"(02)22180567","fullname":"\u9806\u76ca\u6c7d\u8eca\u65b0\u5e97\u5c55\u793a\u4e2d\u5fc3","business_time":"\u9031\u4e00\u81f3\u9031\u65e508:30-21:00","latitude":"24.980364","longitude":"121.534097"},{"dealername":"\u9806\u76ca","name":"\u6cf0\u5c71","address":"\u65b0\u5317\u5e02\u6cf0\u5c71\u5340\u660e\u5fd7\u8def\u4e09\u6bb5523\u865f","tel":"(02)29060669","fullname":"\u9806\u76ca\u6c7d\u8eca\u6cf0\u5c71\u5c55\u793a\u4e2d\u5fc3","business_time":"\u9031\u4e00\u81f3\u9031\u65e508:30-21:00","latitude":"25.030699","longitude":"121.421341"},{"dealername":"\u9806\u76ca","name":"\u8606\u6d32","address":"\u65b0\u5317\u5e02\u8606\u6d32\u5340\u4e09\u6c11\u8def296\u865f","tel":"(02)22881000","fullname":"\u9806\u76ca\u6c7d\u8eca\u8606\u6d32\u5c55\u793a\u4e2d\u5fc3","business_time":"\u9031\u4e00\u81f3\u9031\u65e508:30-21:00","latitude":"25.090674","longitude":"121.466587"},{"dealername":"\u9806\u76ca","name":"\u4e2d\u548c","address":"\u65b0\u5317\u5e02\u4e2d\u548c\u5340\u4e2d\u6b63\u8def912\u865f","tel":"(02)22267022","fullname":"\u9806\u76ca\u6c7d\u8eca\u4e2d\u548c\u5c55\u793a\u4e2d\u5fc3","business_time":"\u9031\u4e00\u81f3\u9031\u65e508:30-21:00","latitude":"25.00791","longitude":"121.483212"},{"dealername":"\u9806\u76ca","name":"\u82b1\u84ee","address":"\u82b1\u84ee\u7e23\u5409\u5b89\u9109\u5efa\u570b\u8def\u4e00\u6bb5197\u865f","tel":"(03)8568121","fullname":"\u9806\u76ca\u6c7d\u8eca\u82b1\u84ee\u5c55\u793a\u4e2d\u5fc3","business_time":"\u9031\u4e00\u81f3\u9031\u65e508:30-21:00","latitude":"23.986467","longitude":"121.5893"},{"dealername":"\u9806\u76ca","name":"\u5b9c\u862d","address":"\u5b9c\u862d\u7e23\u5b9c\u862d\u5e02\u4e2d\u5c71\u8def\u4e94\u6bb5180\u865f","tel":"(03)9289000","fullname":"\u9806\u76ca\u6c7d\u8eca\u5b9c\u862d\u5c55\u793a\u4e2d\u5fc3","business_time":"\u9031\u4e00\u81f3\u9031\u65e508:30-21:00","latitude":"24.770562","longitude":"121.757244"},{"dealername":"\u9806\u76ca","name":"\u516b\u5fb7","address":"\u6843\u5712\u5e02\u516b\u5fb7\u5340\u4ecb\u58fd\u8def\u4e8c\u6bb5251\u865f","tel":"(03)3638277","fullname":"\u9806\u76ca\u6c7d\u8eca\u516b\u5fb7\u5c55\u793a\u4e2d\u5fc3","business_time":"\u9031\u4e00\u81f3\u9031\u65e508:30-21:00","latitude":"24.950738","longitude":"121.298205"},{"dealername":"\u9806\u76ca","name":"\u4e2d\u58e2","address":"\u6843\u5712\u5e02\u4e2d\u58e2\u5340\u4e2d\u5712\u8def158\u865f","tel":"(03)4555133","fullname":"\u9806\u76ca\u6c7d\u8eca\u4e2d\u58e2\u5c55\u793a\u4e2d\u5fc3","business_time":"\u9031\u4e00\u81f3\u9031\u65e508:30-21:00","latitude":"24.967422","longitude":"121.23691"},{"dealername":"\u9806\u76ca","name":"\u5e73\u93ae","address":"\u6843\u5712\u5e02\u5e73\u93ae\u5340\u74b0\u5357\u8def168\u865f","tel":"(03)4922225","fullname":"\u9806\u76ca\u6c7d\u8eca\u5e73\u93ae\u5c55\u793a\u4e2d\u5fc3","business_time":"\u9031\u4e00\u81f3\u9031\u65e508:30-21:00","latitude":"24.941929","longitude":"121.211507"},{"dealername":"\u9806\u76ca","name":"\u982d\u4efd","address":"\u82d7\u6817\u7e23\u982d\u4efd\u93ae\u81ea\u5f37\u8def\u4e8c\u6bb5472\u865f","tel":"(03)7620001","fullname":"\u9806\u76ca\u6c7d\u8eca\u982d\u4efd\u5c55\u793a\u4e2d\u5fc3","business_time":"\u9031\u4e00\u81f3\u9031\u65e508:30-21:00","latitude":"24.682853","longitude":"120.885402"},{"dealername":"\u9806\u76ca","name":"\u6f6d\u5b50","address":"\u81fa\u4e2d\u5e02\u6f6d\u5b50\u5340\u4e2d\u5c71\u8def\u4e00\u6bb5420\u865f","tel":"(04)25325199","fullname":"\u9806\u76ca\u6c7d\u8eca\u6f6d\u5b50\u5c55\u793a\u4e2d\u5fc3","business_time":"\u9031\u4e00\u81f3\u9031\u65e508:30-21:00","latitude":"24.19957","longitude":"120.702839"},{"dealername":"\u9806\u76ca","name":"\u53f0\u4e2d","address":"\u81fa\u4e2d\u5e02\u5317\u5340\u6587\u5fc3\u8def\u56db\u6bb5194\u865f","tel":"(04)22969797","fullname":"\u9806\u76ca\u6c7d\u8eca\u53f0\u4e2d\u5c55\u793a\u4e2d\u5fc3","business_time":"\u9031\u4e00\u81f3\u9031\u65e508:30-21:00","latitude":"24.173279","longitude":"120.675912"},{"dealername":"\u9806\u76ca","name":"\u592a\u5e73","address":"\u81fa\u4e2d\u5e02\u592a\u5e73\u5340\u592a\u5e73\u8def726\u865f","tel":"(04)22773859","fullname":"\u9806\u76ca\u6c7d\u8eca\u592a\u5e73\u5c55\u793a\u4e2d\u5fc3","business_time":"\u9031\u4e00\u81f3\u9031\u65e508:30-21:00","latitude":"24.127085","longitude":"120.710892"},{"dealername":"\u9806\u76ca","name":"\u54e1\u6797","address":"\u5f70\u5316\u7e23\u5927\u6751\u9109\u4e2d\u5c71\u8def\u4e8c\u6bb53-1\u865f","tel":"(04)8523988","fullname":"\u9806\u76ca\u6c7d\u8eca\u54e1\u6797\u5c55\u793a\u4e2d\u5fc3","business_time":"\u9031\u4e00\u81f3\u9031\u65e508:30-21:00","latitude":"23.981448","longitude":"120.569418"},{"dealername":"\u9806\u76ca","name":"\u5f70\u5316","address":"\u5f70\u5316\u7e23\u5f70\u5316\u5e02\u91d1\u99ac\u8def\u4e09\u6bb5428\u865f","tel":"(04)7254700","fullname":"\u9806\u76ca\u6c7d\u8eca\u5f70\u5316\u5c55\u793a\u4e2d\u5fc3","business_time":"\u9031\u4e00\u81f3\u9031\u65e508:30-21:00","latitude":"24.083432","longitude":"120.529941"},{"dealername":"\u9806\u76ca","name":"\u5357\u6295","address":"\u5357\u6295\u7e23\u5357\u6295\u5e02\u5357\u5d17\u5de5\u696d\u5340\u5357\u5d17\u4e09\u8def43\u865f","tel":"(049)2255266","fullname":"\u9806\u76ca\u6c7d\u8eca\u5357\u6295\u5c55\u793a\u4e2d\u5fc3","business_time":"\u5468\u4e00\u81f3\u5468\u4e9408:30-19:00\/\u570b\u5b9a\u5047\u65e5(\u542b\u516d\u65e5)10:00-19:00","latitude":"23.930205","longitude":"120.667345"},{"dealername":"\u9806\u76ca","name":"\u535a\u611b","address":"\u5609\u7fa9\u5e02\u5609\u7fa9\u5e02\u535a\u611b\u8def\u4e8c\u6bb5548\u865f","tel":"(05)2863030","fullname":"\u9806\u76ca\u6c7d\u8eca\u535a\u611b\u5c55\u793a\u4e2d\u5fc3","business_time":"\u9031\u4e00\u81f3\u9031\u65e508:30-21:00","latitude":"23.472262","longitude":"120.431218"},{"dealername":"\u9806\u76ca","name":"\u6597\u516d","address":"\u96f2\u6797\u7e23\u6597\u516d\u5e02\u5927\u5b78\u8def\u4e8c\u6bb567\u865f","tel":"(05)5345091","fullname":"\u9806\u76ca\u6c7d\u8eca\u6597\u516d\u5c55\u793a\u4e2d\u5fc3","business_time":"\u9031\u4e00\u81f3\u9031\u65e508:30-21:00","latitude":"23.701935","longitude":"120.552709"},{"dealername":"\u9806\u76ca","name":"\u53f3\u660c","address":"\u9ad8\u96c4\u5e02\u6960\u6893\u5340\u5fb7\u6c11\u8def852\u865f","tel":"(07)3638220","fullname":"\u9806\u76ca\u6c7d\u8eca\u53f3\u660c\u5c55\u793a\u4e2d\u5fc3","business_time":"\u9031\u4e00\u81f3\u9031\u65e508:30-21:00","latitude":"22.721744","longitude":"120.290706"},{"dealername":"\u9806\u76ca","name":"\u65b0\u71df","address":"\u81fa\u5357\u5e02\u65b0\u71df\u5340\u5fa9\u8208\u8def549\u4e4b1\u865f","tel":"(06)6562711","fullname":"\u9806\u76ca\u6c7d\u8eca\u65b0\u71df\u5c55\u793a\u4e2d\u5fc3","business_time":"\u9031\u4e00\u81f3\u9031\u65e508:30-21:00","latitude":"23.3056","longitude":"120.296028"},{"dealername":"\u9806\u76ca","name":"\u4e2d\u83ef","address":"\u81fa\u5357\u5e02\u6771\u5340\u4e2d\u83ef\u6771\u8def\u4e09\u6bb5265\u3001269\u865f","tel":"(06)2899805","fullname":"\u9806\u76ca\u6c7d\u8eca\u4e2d\u83ef\u5c55\u793a\u4e2d\u5fc3","business_time":"\u9031\u4e00\u81f3\u9031\u65e508:30-21:00","latitude":"22.974936","longitude":"120.224335"},{"dealername":"\u9806\u76ca","name":"\u4e00\u5fc3","address":"\u9ad8\u96c4\u5e02\u524d\u93ae\u5340\u4e00\u5fc3\u4e00\u8def147\u865f","tel":"(07)7255812","fullname":"\u9806\u76ca\u6c7d\u8eca\u4e00\u5fc3\u5c55\u793a\u4e2d\u5fc3","business_time":"\u9031\u4e00\u81f3\u9031\u65e508:30-21:00","latitude":"22.606589","longitude":"120.320947"},{"dealername":"\u9806\u76ca","name":"\u5ca1\u5c71","address":"\u9ad8\u96c4\u5e02\u5ca1\u5c71\u5340\u5ca1\u5c71\u8def666\u865f","tel":"(07)6229830","fullname":"\u9806\u76ca\u6c7d\u8eca\u5ca1\u5c71\u5c55\u793a\u4e2d\u5fc3","business_time":"\u5468\u4e00\u81f3\u5468\u4e9408:30-19:00\/\u570b\u5b9a\u5047\u65e5(\u542b\u516d\u65e5)10:00-19:00","latitude":"22.805151","longitude":"120.2883"},{"dealername":"\u9806\u76ca","name":"\u58eb\u6797","address":"\u81fa\u5317\u5e02\u5317\u6295\u5340\u627f\u5fb7\u8def\u4e03\u6bb53\u865f","tel":"(02)28279589","fullname":"\u9806\u76ca\u6c7d\u8eca\u58eb\u6797\u5c55\u793a\u4e2d\u5fc3","business_time":"\u9031\u4e00\u81f3\u9031\u65e508:30-21:00","latitude":"25.106546","longitude":"121.515696"},{"dealername":"\u9806\u76ca","name":"\u571f\u57ce","address":"\u65b0\u5317\u5e02\u571f\u57ce\u5340\u4e2d\u83ef\u8def\u4e8c\u6bb5136\u865f","tel":"(02)22689322","fullname":"\u9806\u76ca\u6c7d\u8eca\u571f\u57ce\u5c55\u793a\u4e2d\u5fc3","business_time":"\u9031\u4e00\u81f3\u9031\u65e508:30-21:00","latitude":"24.973337","longitude":"121.437158"},{"dealername":"\u9806\u76ca","name":"\u6843\u5712","address":"\u6843\u5712\u5e02\u6843\u5712\u5340\u4e09\u6c11\u8def\u4e8c\u6bb5101\u865f","tel":"(03)3345567","fullname":"\u9806\u76ca\u6c7d\u8eca\u6843\u5712\u5c55\u793a\u4e2d\u5fc3","business_time":"\u9031\u4e00\u81f3\u9031\u65e508:30-21:00","latitude":"25.000486","longitude":"121.313371"},{"dealername":"\u9806\u76ca","name":"\u65b0\u7af9","address":"\u65b0\u7af9\u5e02\u65b0\u7af9\u5e02\u4e2d\u83ef\u8def\u56db\u6bb52\u865f","tel":"(03)5397950","fullname":"\u9806\u76ca\u6c7d\u8eca\u65b0\u7af9\u5c55\u793a\u4e2d\u5fc3","business_time":"\u9031\u4e00\u81f3\u9031\u65e508:30-21:00","latitude":"24.778289","longitude":"120.988108"},{"dealername":"\u9806\u76ca","name":"\u53f0\u5357","address":"\u81fa\u5357\u5e02\u6c38\u5eb7\u5340\u4e2d\u6b63\u5357\u8def333\u865f","tel":"(06)24300778","fullname":"\u9806\u76ca\u6c7d\u8eca\u53f0\u5357\u5c55\u793a\u4e2d\u5fc3","business_time":"\u9031\u4e00\u81f3\u9031\u65e508:30-21:00","latitude":"23.028934","longitude":"120.223657"},{"dealername":"\u9806\u76ca","name":"\u5b89\u5e73","address":"\u81fa\u5357\u5e02\u5357\u5340\u4e2d\u83ef\u897f\u8def\u4e00\u6bb5420\u865f","tel":"(06)2615138","fullname":"\u9806\u76ca\u6c7d\u8eca\u5b89\u5e73\u5c55\u793a\u4e2d\u5fc3","business_time":"\u9031\u4e00\u81f3\u9031\u65e508:30-21:00","latitude":"22.984792","longitude":"120.186629"},{"dealername":"\u9806\u76ca","name":"\u5fa9\u8208","address":"\u81fa\u4e2d\u5e02\u70cf\u65e5\u5340\u4e2d\u5c71\u8def\u4e00\u6bb5101\u865f","tel":"(04)23383457","fullname":"\u9806\u76ca\u6c7d\u8eca\u5fa9\u8208\u5c55\u793a\u4e2d\u5fc3","business_time":"\u9031\u4e00\u81f3\u9031\u65e508:30-21:00","latitude":"24.110753","longitude":"120.647933"},{"dealername":"\u9806\u76ca","name":"\u6c11\u65cf","address":"\u9ad8\u96c4\u5e02\u4e09\u6c11\u5340\u6c11\u65cf\u4e00\u8def566\u865f","tel":"(07)3972289","fullname":"\u9806\u76ca\u6c7d\u8eca\u6c11\u65cf\u5c55\u793a\u4e2d\u5fc3","business_time":"\u9031\u4e00\u81f3\u9031\u65e508:30-21:00","latitude":"22.659049","longitude":"120.315974"},{"dealername":"\u9806\u76ca","name":"\u9cf3\u5c71","address":"\u9ad8\u96c4\u5e02\u9cf3\u5c71\u5340\u5149\u5fa9\u8def\u4e8c\u6bb5187\u865f","tel":"(07)7470113","fullname":"\u9806\u76ca\u6c7d\u8eca\u9cf3\u5c71\u5c55\u793a\u4e2d\u5fc3","business_time":"\u9031\u4e00\u81f3\u9031\u65e508:30-21:00","latitude":"22.62918","longitude":"120.346229"},{"dealername":"\u9806\u76ca","name":"\u6f6e\u5dde","address":"\u5c4f\u6771\u7e23\u6f6e\u5dde\u93ae\u5149\u6625\u91cc\u6f6e\u5dde\u8def41\u865f","tel":"(08)7801222","fullname":"\u9806\u76ca\u6c7d\u8eca\u6f6e\u5dde\u5c55\u793a\u4e2d\u5fc3","business_time":"\u5468\u4e00\u81f3\u5468\u4e9408:30-19:00\/\u570b\u5b9a\u5047\u65e5(\u542b\u516d\u65e5)10:00-19:00","latitude":"22.536133","longitude":"120.537306"},{"dealername":"\u9806\u76ca","name":"\u5c4f\u6771","address":"\u5c4f\u6771\u7e23\u5c4f\u6771\u5e02\u5efa\u570b\u8def386\u865f","tel":"(08)7511200","fullname":"\u9806\u76ca\u6c7d\u8eca\u5c4f\u6771\u5c55\u793a\u4e2d\u5fc3","business_time":"\u9031\u4e00\u81f3\u9031\u65e508:30-21:00","latitude":"22.657095","longitude":"120.466929"},{"dealername":"\u9806\u76ca","name":"\u53f0\u6771","address":"\u81fa\u6771\u7e23\u81fa\u6771\u5e02\u5927\u696d\u8def128\u865f","tel":"(08)9341171","fullname":"\u9806\u76ca\u6c7d\u8eca\u53f0\u6771\u5c55\u793a\u4e2d\u5fc3","business_time":"\u5468\u4e00\u81f3\u5468\u4e9408:30-19:00\/\u570b\u5b9a\u5047\u65e5(\u542b\u516d\u65e5)10:00-19:00","latitude":"22.753274","longitude":"121.131102"},{"dealername":"\u532f\u8c50","name":"\u5927\u5b89","address":"\u81fa\u5317\u5e02\u5927\u5b89\u5340\u5fa9\u8208\u5357\u8def\u4e8c\u6bb5286\u865f","tel":"(02)27365633","fullname":"\u532f\u8c50\u6c7d\u8eca\u5927\u5b89\u5c55\u793a\u4e2d\u5fc3","business_time":"\u9031\u4e00\u81f3\u9031\u65e508:30-21:00","latitude":"25.024074","longitude":"121.543216"},{"dealername":"\u9806\u76ca","name":"\u5e02\u653f","address":"\u81fa\u4e2d\u5e02\u5357\u5c6f\u5340\u6587\u5fc3\u8def\u4e00\u6bb5459\u865f","tel":"(04)22593131","fullname":"\u9806\u76ca\u6c7d\u8eca\u5e02\u653f\u5c55\u793a\u4e2d\u5fc3","business_time":"\u9031\u4e00\u81f3\u9031\u65e508:30-21:00","latitude":"24.151552","longitude":"120.646331"},{"dealername":"\u9806\u76ca","name":"\u8349\u5c6f","address":"\u5357\u6295\u7e23\u8349\u5c6f\u93ae\u6210\u529f\u8def\u4e00\u6bb51179\u865f","tel":"(049)2314836","fullname":"\u9806\u76ca\u6c7d\u8eca\u8349\u5c6f\u5c55\u793a\u4e2d\u5fc3","business_time":"\u5468\u4e00\u81f3\u5468\u4e9408:30-19:00\/\u570b\u5b9a\u5047\u65e5(\u542b\u516d\u65e5)10:00-19:00","latitude":"23.9948","longitude":"120.688"},{"dealername":"\u9806\u76ca","name":"\u5e7c\u7345","address":"\u6843\u5712\u5e02\u694a\u6885\u5340\u5e7c\u7345\u5de5\u696d\u5340\u9752\u5e74\u8def3\u865f","tel":"(03)4643296","fullname":"\u9806\u76ca\u6c7d\u8eca\u5e7c\u7345\u5c55\u793a\u4e2d\u5fc3","business_time":"\u9031\u4e00\u81f3\u9031\u65e508:30-19:00","latitude":"24.923142","longitude":"121.171367"},{"dealername":"\u9806\u76ca","name":"\u6e05\u6c34","address":"\u81fa\u4e2d\u5e02\u6e05\u6c34\u5340\u4e2d\u5c71\u8def498-6\u865f","tel":"(04)26220190","fullname":"\u9806\u76ca\u6c7d\u8eca\u6e05\u6c34\u5c55\u793a\u4e2d\u5fc3","business_time":"\u5468\u4e00\u81f3\u5468\u4e9408:30-19:00\/\u570b\u5b9a\u5047\u65e5(\u542b\u516d\u65e5)10:00-19:00","latitude":"24.28843","longitude":"120.586284"},{"dealername":"\u9806\u76ca","name":"\u6597\u5357","address":"\u96f2\u6797\u7e23\u6597\u5357\u5e02\u5ef6\u5e73\u8def\u4e8c\u6bb555\u865f","tel":"(05)5951687","fullname":"\u9806\u76ca\u6c7d\u8eca\u6597\u5357\u5c55\u793a\u4e2d\u5fc3","business_time":"\u9031\u4e00\u81f3\u9031\u65e508:30-21:00","latitude":"23.683333","longitude":"120.483333"},{"dealername":"\u9806\u76ca","name":"\u5b89\u5357","address":"\u81fa\u5357\u5e02\u5b89\u5357\u5340\u6d77\u4f43\u8def\u4e8c\u6bb5174\u865f","tel":"(06)2568220","fullname":"\u9806\u76ca\u6c7d\u8eca\u5b89\u5357\u5c55\u793a\u4e2d\u5fc3","business_time":"\u9031\u4e00\u81f3\u9031\u65e508:30-21:00","latitude":"23.033157","longitude":"120.189996"},{"dealername":"\u9806\u76ca","name":"\u6771\u6e2f","address":"\u5c4f\u6771\u7e23\u6771\u6e2f\u93ae\u5927\u9d6c\u91cc\u5927\u6f6d\u8def120-2\u865f","tel":"(08)8320996","fullname":"\u9806\u76ca\u6c7d\u8eca\u6771\u6e2f\u5c55\u793a\u4e2d\u5fc3","business_time":"\u5468\u4e00\u81f3\u5468\u4e9408:30-19:00\/\u570b\u5b9a\u5047\u65e5(\u542b\u516d\u65e5)10:00-19:00","latitude":"22.457017","longitude":"120.483044"},{"dealername":"\u9806\u76ca","name":"\u6797\u53e3","address":"\u65b0\u5317\u5e02\u6797\u53e3\u5340\u6587\u5316\u4e00\u8def\u4e00\u6bb517\u865f","tel":"(02)26098757","fullname":"\u9806\u76ca\u6c7d\u8eca\u6797\u53e3\u5c55\u793a\u4e2d\u5fc3","business_time":"\u9031\u4e00\u81f3\u9031\u65e508:30-21:00","latitude":"25.068634","longitude":"121.369639"},{"dealername":"\u9806\u76ca","name":"\u5357\u5d01","address":"\u6843\u5712\u5e02\u8606\u7af9\u5340\u9326\u4e2d\u6751\u5357\u5d01\u8def\u4e00\u6bb545-1\u865f","tel":"(03)3214588","fullname":"\u9806\u76ca\u6c7d\u8eca\u5357\u5d01\u5c55\u793a\u4e2d\u5fc3","business_time":"\u9031\u4e00\u81f3\u9031\u65e508:30-21:00","latitude":"25.031007","longitude":"121.300289"},{"dealername":"\u9806\u76ca","name":"\u82d7\u6817","address":"\u82d7\u6817\u7e23\u82d7\u6817\u5e02\u6587\u5c71\u91cc\u570b\u83ef\u8def637\u865f","tel":"(03)7333030","fullname":"\u9806\u76ca\u6c7d\u8eca\u82d7\u6817\u5c55\u793a\u4e2d\u5fc3","business_time":"\u9031\u4e00\u81f3\u9031\u65e508:30-21:00","latitude":"24.573638","longitude":"120.81697"},{"dealername":"\u9806\u76ca","name":"\u5927\u91cc","address":"\u81fa\u4e2d\u5e02\u5927\u91cc\u5340\u570b\u5149\u8def\u4e8c\u6bb5433\u865f","tel":"(04)24075230","fullname":"\u9806\u76ca\u6c7d\u8eca\u5927\u91cc\u5c55\u793a\u4e2d\u5fc3","business_time":"\u9031\u4e00\u81f3\u9031\u65e508:30-21:00","latitude":"24.109696","longitude":"120.679702"},{"dealername":"\u532f\u8c50","name":"\u5167\u6e56","address":"\u81fa\u5317\u5e02\u5167\u6e56\u5340\u5167\u6e56\u8def\u4e00\u6bb5213\u865f","tel":"(02)27985432","fullname":"\u532f\u8c50\u6c7d\u8eca\u5167\u6e56\u5c55\u793a\u4e2d\u5fc3","business_time":"\u9031\u4e00\u81f3\u9031\u65e508:30-21:00","latitude":"25.083275","longitude":"121.563711"},{"dealername":"\u532f\u8c50","name":"\u5317\u6295","address":"\u81fa\u5317\u5e02\u5317\u6295\u5340\u5927\u696d\u8def262\u865f","tel":"(02)28927678","fullname":"\u532f\u8c50\u6c7d\u8eca\u5317\u6295\u5c55\u793a\u4e2d\u5fc3","business_time":"\u9031\u4e00\u81f3\u9031\u65e508:30-21:00","latitude":"25.12672","longitude":"121.498631"},{"dealername":"\u532f\u8c50","name":"\u7af9\u5317","address":"\u65b0\u7af9\u7e23\u7af9\u5317\u5e02\u4e2d\u83ef\u8def340-57\u865f","tel":"(03)5551183","fullname":"\u532f\u8c50\u6c7d\u8eca\u7af9\u5317\u5c55\u793a\u4e2d\u5fc3","business_time":"\u9031\u4e00\u81f3\u9031\u65e508:30-21:00","latitude":"24.83566","longitude":"121.005538"},{"dealername":"\u532f\u8c50","name":"\u5357\u5d01","address":"\u6843\u5712\u5e02\u6843\u5712\u5340\u7d93\u570b\u8def415\u865f","tel":"(03)3256668","fullname":"\u532f\u8c50\u6c7d\u8eca\u5357\u5d01\u5c55\u793a\u4e2d\u5fc3","business_time":"\u9031\u4e00\u81f3\u9031\u65e508:30-21:00","latitude":"25.027071","longitude":"121.30544"},{"dealername":"\u532f\u8c50","name":"\u6771\u53f0\u5357","address":"\u81fa\u5357\u5e02\u6771\u5340\u4e2d\u83ef\u6771\u8def\u4e8c\u6bb5263\u865f","tel":"(06)2698811","fullname":"\u532f\u8c50\u6c7d\u8eca\u6771\u53f0\u5357\u5c55\u793a\u4e2d\u5fc3","business_time":"\u9031\u4e00\u81f3\u9031\u65e508:30-21:00","latitude":"22.982933","longitude":"120.231387"},{"dealername":"\u532f\u8c50","name":"\u57fa\u9686","address":"\u57fa\u9686\u5e02\u4fe1\u7fa9\u5340\u4fe1\u4e00\u8def95\u865f","tel":"(02)24267111","fullname":"\u532f\u8c50\u6c7d\u8eca\u57fa\u9686\u5c55\u793a\u4e2d\u5fc3","business_time":"\u9031\u4e00\u81f3\u9031\u65e508:30-21:00","latitude":"25.12869","longitude":"121.750647"},{"dealername":"\u532f\u8c50","name":"\u6f84\u6e05","address":"\u9ad8\u96c4\u5e02\u9cf3\u5c71\u5340\u9752\u5e74\u8def\u4e8c\u6bb5321\u865f","tel":"(07)7776016","fullname":"\u532f\u8c50\u6c7d\u8eca\u6f84\u6e05\u5c55\u793a\u4e2d\u5fc3","business_time":"\u9031\u4e00\u81f3\u9031\u65e508:30-21:00","latitude":"22.641067","longitude":"120.351016"},{"dealername":"\u532f\u8c50","name":"\u9ad8\u96c4","address":"\u9ad8\u96c4\u5e02\u5de6\u71df\u5340\u5927\u4e2d\u4e00\u8def355\u865f","tel":"(07)3106977","fullname":"\u532f\u8c50\u6c7d\u8eca\u9ad8\u96c4\u5c55\u793a\u4e2d\u5fc3","business_time":"\u9031\u4e00\u81f3\u9031\u65e508:30-21:00","latitude":"22.677217","longitude":"120.321743"},{"dealername":"\u532f\u8c50","name":"\u5357\u6e2f","address":"\u81fa\u5317\u5e02\u5357\u6e2f\u5340\u5357\u6e2f\u8def\u4e09\u6bb5106\u865f","tel":"(02)27834111","fullname":"\u532f\u8c50\u6c7d\u8eca\u5357\u6e2f\u5c55\u793a\u4e2d\u5fc3","business_time":"\u9031\u4e00\u81f3\u9031\u65e508:30-21:00","latitude":"25.053413","longitude":"121.58958"},{"dealername":"\u532f\u8c50","name":"\u666f\u7f8e","address":"\u81fa\u5317\u5e02\u4e2d\u6b63\u5340\u7f85\u65af\u798f\u8def\u4e94\u6bb541\u865f","tel":"(02)29328338","fullname":"\u532f\u8c50\u6c7d\u8eca\u666f\u7f8e\u5c55\u793a\u4e2d\u5fc3","business_time":"\u9031\u4e00\u81f3\u9031\u65e508:30-21:00","latitude":"25.007438","longitude":"121.538842"},{"dealername":"\u532f\u8c50","name":"\u4e09\u9daf","address":"\u65b0\u5317\u5e02\u4e09\u5cfd\u5340\u5fa9\u8208\u8def465-1\u865f","tel":"(02)26731408","fullname":"\u532f\u8c50\u6c7d\u8eca\u4e09\u9daf\u5c55\u793a\u4e2d\u5fc3","business_time":"\u9031\u4e00\u81f3\u9031\u65e508:30-21:00","latitude":"24.938389","longitude":"121.361508"},{"dealername":"\u532f\u8c50","name":"\u4e2d\u548c","address":"\u65b0\u5317\u5e02\u4e2d\u548c\u5340\u5efa\u5eb7\u8def230\u865f","tel":"(02)22231010","fullname":"\u532f\u8c50\u6c7d\u8eca\u4e2d\u548c\u5c55\u793a\u4e2d\u5fc3","business_time":"\u9031\u4e00\u81f3\u9031\u65e508:30-21:00","latitude":"25.002697","longitude":"121.49186"},{"dealername":"\u532f\u8c50","name":"\u5357\u57fa\u9686","address":"\u57fa\u9686\u5e02\u5b89\u6a02\u5340\u9ea5\u91d1\u8def144\u865f","tel":"(02)24328282","fullname":"\u532f\u8c50\u6c7d\u8eca\u5357\u57fa\u9686\u5c55\u793a\u4e2d\u5fc3","business_time":"\u9031\u4e00\u81f3\u9031\u65e508:30-21:00","latitude":"25.125987","longitude":"121.719397"},{"dealername":"\u532f\u8c50","name":"\u6c50\u6b62","address":"\u65b0\u5317\u5e02\u6c50\u6b62\u5340\u5927\u540c\u8def\u4e00\u6bb5159-1\u865f","tel":"(02)26476711","fullname":"\u532f\u8c50\u6c7d\u8eca\u6c50\u6b62\u5c55\u793a\u4e2d\u5fc3","business_time":"\u9031\u4e00\u81f3\u9031\u65e508:30-21:00","latitude":"25.056384","longitude":"121.632096"},{"dealername":"\u532f\u8c50","name":"\u65b0\u5e97","address":"\u65b0\u5317\u5e02\u65b0\u5e97\u5340\u4e2d\u8208\u8def\u4e09\u6bb59\u865f","tel":"(02)89199388","fullname":"\u532f\u8c50\u6c7d\u8eca\u65b0\u5e97\u5c55\u793a\u4e2d\u5fc3","business_time":"\u9031\u4e00\u81f3\u9031\u65e508:30-21:00","latitude":"24.972759","longitude":"121.548378"},{"dealername":"\u532f\u8c50","name":"\u982d\u4efd","address":"\u82d7\u6817\u7e23\u982d\u4efd\u93ae\u4e2d\u592e\u8def628\u865f","tel":"(03)7695156","fullname":"\u532f\u8c50\u6c7d\u8eca\u982d\u4efd\u5c55\u793a\u4e2d\u5fc3","business_time":"\u9031\u4e00\u81f3\u9031\u65e508:30-21:00","latitude":"24.694549","longitude":"120.893286"},{"dealername":"\u532f\u8c50","name":"\u5c4f\u6771","address":"\u5c4f\u6771\u7e23\u5c4f\u6771\u5e02\u548c\u751f\u8def\u4e8c\u6bb5110\u865f","tel":"(08)7528301","fullname":"\u532f\u8c50\u6c7d\u8eca\u5c4f\u6771\u5c55\u793a\u4e2d\u5fc3","business_time":"\u9031\u4e00\u81f3\u9031\u65e508:30-21:00","latitude":"22.652104","longitude":"120.483192"},{"dealername":"\u532f\u8c50","name":"\u6960\u6893","address":"\u9ad8\u96c4\u5e02\u6960\u6893\u5340\u8ecd\u6821\u8def751\u865f","tel":"(07)3646777","fullname":"\u532f\u8c50\u6c7d\u8eca\u6960\u6893\u5c55\u793a\u4e2d\u5fc3","business_time":"\u9031\u4e00\u81f3\u9031\u65e508:30-21:00","latitude":"22.709442","longitude":"120.292769"},{"dealername":"\u532f\u8c50","name":"\u5ca1\u5c71","address":"\u9ad8\u96c4\u5e02\u71d5\u5de2\u5340\u5b89\u62db\u8def1033\u4e4b2\u865f","tel":"(07)6165611","fullname":"\u532f\u8c50\u6c7d\u8eca\u5ca1\u5c71\u5c55\u793a\u4e2d\u5fc3","business_time":"\u9031\u4e00\u81f3\u9031\u65e508:30-21:00","latitude":"22.786753","longitude":"120.317575"},{"dealername":"\u532f\u8c50","name":"\u7f85\u6771","address":"\u5b9c\u862d\u7e23\u4e94\u7d50\u9109\u4e2d\u6b63\u8def\u4e8c\u6bb521\u865f","tel":"(03)9658111","fullname":"\u532f\u8c50\u6c7d\u8eca\u7f85\u6771\u5c55\u793a\u4e2d\u5fc3","business_time":"\u9031\u4e00\u81f3\u9031\u65e508:30-21:00","latitude":"24.700832","longitude":"121.769245"},{"dealername":"\u532f\u8c50","name":"\u58eb\u6797","address":"\u81fa\u5317\u5e02\u58eb\u6797\u5340\u91cd\u6176\u5317\u8def\u56db\u6bb581\u865f","tel":"(02)28115155","fullname":"\u532f\u8c50\u6c7d\u8eca\u58eb\u6797\u5c55\u793a\u4e2d\u5fc3","business_time":"\u9031\u4e00\u81f3\u9031\u65e508:30-21:00","latitude":"25.081596","longitude":"121.512429"},{"dealername":"\u532f\u8c50","name":"\u4e09\u91cd","address":"\u65b0\u5317\u5e02\u4e09\u91cd\u5340\u91cd\u967d\u8def\u56db\u6bb51\u865f","tel":"(02)29886675","fullname":"\u532f\u8c50\u6c7d\u8eca\u4e09\u91cd\u5c55\u793a\u4e2d\u5fc3","business_time":"\u9031\u4e00\u81f3\u9031\u65e508:30-21:00","latitude":"25.068828","longitude":"121.49107"},{"dealername":"\u532f\u8c50","name":"\u677f\u6a4b","address":"\u65b0\u5317\u5e02\u677f\u6a4b\u5340\u6587\u5316\u8def\u4e8c\u6bb5464\u865f","tel":"(02)22525145","fullname":"\u532f\u8c50\u6c7d\u8eca\u677f\u6a4b\u5c55\u793a\u4e2d\u5fc3","business_time":"\u9031\u4e00\u81f3\u9031\u65e508:30-21:00","latitude":"25.032536","longitude":"121.474947"},{"dealername":"\u532f\u8c50","name":"\u5e73\u93ae","address":"\u6843\u5712\u5e02\u5e73\u93ae\u5340\u5ef6\u5e73\u8def\u4e09\u6bb5102\u865f","tel":"(03)4936555","fullname":"\u532f\u8c50\u6c7d\u8eca\u5e73\u93ae\u5c55\u793a\u4e2d\u5fc3","business_time":"\u9031\u4e00\u81f3\u9031\u65e508:30-21:00","latitude":"24.940549","longitude":"121.204366"},{"dealername":"\u532f\u8c50","name":"\u6587\u5fc3","address":"\u81fa\u4e2d\u5e02\u897f\u5c6f\u5340\u6587\u5fc3\u8def\u4e09\u6bb5279\u865f","tel":"(04)22965115","fullname":"\u532f\u8c50\u6c7d\u8eca\u6587\u5fc3\u5c55\u793a\u4e2d\u5fc3","business_time":"\u9031\u4e00\u81f3\u9031\u65e508:30-21:00","latitude":"24.172885","longitude":"120.664189"},{"dealername":"\u532f\u8c50","name":"\u54e1\u6797","address":"\u5f70\u5316\u7e23\u82b1\u58c7\u9109\u4e2d\u5c71\u8def\u4e00\u6bb512\u865f","tel":"(04)7878207","fullname":"\u532f\u8c50\u6c7d\u8eca\u54e1\u6797\u5c55\u793a\u4e2d\u5fc3","business_time":"\u9031\u4e00\u81f3\u9031\u65e508:30-21:00","latitude":"24.004668","longitude":"120.555824"},{"dealername":"\u532f\u8c50","name":"\u9e7f\u6e2f","address":"\u5f70\u5316\u7e23\u798f\u8208\u9109\u5f70\u9e7f\u8def\u4e03\u6bb5339\u865f","tel":"(04)7761330","fullname":"\u532f\u8c50\u6c7d\u8eca\u9e7f\u6e2f\u5c55\u793a\u4e2d\u5fc3","business_time":"\u9031\u4e00\u81f3\u9031\u65e508:30-21:00","latitude":"24.046724","longitude":"120.448459"},{"dealername":"\u532f\u8c50","name":"\u6eaa\u6e56","address":"\u5f70\u5316\u7e23\u6eaa\u6e56\u93ae\u54e1\u9e7f\u8def\u4e8c\u6bb5115\u865f","tel":"(04)8818090","fullname":"\u532f\u8c50\u6c7d\u8eca\u6eaa\u6e56\u5c55\u793a\u4e2d\u5fc3","business_time":"\u9031\u4e00\u81f3\u9031\u65e508:30-21:00","latitude":"23.954032","longitude":"120.492453"},{"dealername":"\u532f\u8c50","name":"\u57d4\u91cc","address":"\u5357\u6295\u7e23\u57d4\u91cc\u93ae\u4e2d\u5c71\u8def\u4e09\u6bb5639\u865f","tel":"(049)2915895","fullname":"\u532f\u8c50\u6c7d\u8eca\u57d4\u91cc\u5c55\u793a\u4e2d\u5fc3","business_time":"\u9031\u4e00\u81f3\u9031\u65e508:30-21:00","latitude":"23.970725","longitude":"120.949146"},{"dealername":"\u532f\u8c50","name":"\u4e94\u6b0a","address":"\u81fa\u4e2d\u5e02\u5357\u5c6f\u5340\u4e94\u6b0a\u897f\u8def\u4e8c\u6bb51\u865f","tel":"(04)24752128","fullname":"\u532f\u8c50\u6c7d\u8eca\u4e94\u6b0a\u5c55\u793a\u4e2d\u5fc3","business_time":"\u9031\u4e00\u81f3\u9031\u65e508:30-21:00","latitude":"24.139911","longitude":"120.654293"},{"dealername":"\u532f\u8c50","name":"\u53f0\u4e2d","address":"\u81fa\u4e2d\u5e02\u5357\u5340\u5fa9\u8208\u8def\u4e00\u6bb52\u865f","tel":"(04)22615201","fullname":"\u532f\u8c50\u6c7d\u8eca\u53f0\u4e2d\u5c55\u793a\u4e2d\u5fc3","business_time":"\u9031\u4e00\u81f3\u9031\u65e508:30-21:00","latitude":"24.111656","longitude":"120.650591"},{"dealername":"\u532f\u8c50","name":"\u5927\u91cc","address":"\u81fa\u4e2d\u5e02\u5927\u91cc\u5340\u570b\u5149\u8def\u4e00\u6bb5168\u865f","tel":"(04)24830000","fullname":"\u532f\u8c50\u6c7d\u8eca\u5927\u91cc\u5c55\u793a\u4e2d\u5fc3","business_time":"\u9031\u4e00\u81f3\u9031\u65e508:30-21:00","latitude":"24.098413","longitude":"120.683508"},{"dealername":"\u532f\u8c50","name":"\u5357\u6295","address":"\u5357\u6295\u7e23\u5357\u6295\u5e02\u5357\u5d17\u4e09\u8def1\u865f","tel":"(049)2256300","fullname":"\u532f\u8c50\u6c7d\u8eca\u5357\u6295\u5c55\u793a\u4e2d\u5fc3","business_time":"\u9031\u4e00\u81f3\u9031\u65e508:30-21:00","latitude":"23.921603","longitude":"120.672221"},{"dealername":"\u532f\u8c50","name":"\u6c99\u9e7f","address":"\u81fa\u4e2d\u5e02\u6c99\u9e7f\u5340\u4e2d\u68f2\u8def183\u865f","tel":"(04)26329777","fullname":"\u532f\u8c50\u6c7d\u8eca\u6c99\u9e7f\u5c55\u793a\u4e2d\u5fc3","business_time":"\u9031\u4e00\u81f3\u9031\u65e508:30-21:00","latitude":"24.229442","longitude":"120.574186"},{"dealername":"\u532f\u8c50","name":"\u5317\u6e2f","address":"\u96f2\u6797\u7e23\u5317\u6e2f\u93ae\u65b0\u5fb7\u8def78\u865f","tel":"(05)7824600","fullname":"\u532f\u8c50\u6c7d\u8eca\u5317\u6e2f\u5c55\u793a\u4e2d\u5fc3","business_time":"\u9031\u4e00\u81f3\u9031\u65e508:30-21:00","latitude":"23.586858","longitude":"120.304133"},{"dealername":"\u532f\u8c50","name":"\u6734\u5b50","address":"\u5609\u7fa9\u7e23\u6734\u5b50\u5e02\u5927\u7ce0\u69941309\u865f","tel":"(05)3704155","fullname":"\u532f\u8c50\u6c7d\u8eca\u6734\u5b50\u5c55\u793a\u4e2d\u5fc3","business_time":"\u9031\u4e00\u81f3\u9031\u65e508:30-21:00","latitude":"23.465351","longitude":"120.259657"},{"dealername":"\u532f\u8c50","name":"\u6f6e\u5dde","address":"\u5c4f\u6771\u7e23\u7af9\u7530\u9109\u6c34\u6e90\u8def2-6\u865f","tel":"(08)7881947","fullname":"\u532f\u8c50\u6c7d\u8eca\u6f6e\u5dde\u5c55\u793a\u4e2d\u5fc3","business_time":"\u9031\u4e00\u81f3\u9031\u65e508:30-21:00","latitude":"22.574738","longitude":"120.548255"},{"dealername":"\u532f\u8c50","name":"\u4e94\u7532","address":"\u9ad8\u96c4\u5e02\u9cf3\u5c71\u5340\u745e\u9686\u6771\u8def138\u865f","tel":"(07)7636999","fullname":"\u532f\u8c50\u6c7d\u8eca\u4e94\u7532\u5c55\u793a\u4e2d\u5fc3","business_time":"\u9031\u4e00\u81f3\u9031\u65e508:30-21:00","latitude":"22.606169","longitude":"120.346776"},{"dealername":"\u532f\u8c50","name":"\u5c0f\u6e2f","address":"\u9ad8\u96c4\u5e02\u5c0f\u6e2f\u5340\u6cbf\u6d77\u4e00\u8def405\u865f","tel":"(07)8060117","fullname":"\u532f\u8c50\u6c7d\u8eca\u5c0f\u6e2f\u5c55\u793a\u4e2d\u5fc3","business_time":"\u9031\u4e00\u81f3\u9031\u65e508:30-21:00","latitude":"22.56191","longitude":"120.35658"},{"dealername":"\u532f\u8c50","name":"\u4e2d\u83ef","address":"\u9ad8\u96c4\u5e02\u4e09\u6c11\u5340\u4e2d\u83ef\u4e8c\u8def182\u865f","tel":"(07)3131311","fullname":"\u532f\u8c50\u6c7d\u8eca\u4e2d\u83ef\u5c55\u793a\u4e2d\u5fc3","business_time":"\u9031\u4e00\u81f3\u9031\u65e508:30-21:00","latitude":"22.643031","longitude":"120.292023"},{"dealername":"\u532f\u8c50","name":"\u53f0\u6771","address":"\u81fa\u6771\u7e23\u81fa\u6771\u5e02\u66f4\u751f\u8def756\u865f","tel":"(08)9229999","fullname":"\u532f\u8c50\u6c7d\u8eca\u53f0\u6771\u5c55\u793a\u4e2d\u5fc3","business_time":"\u9031\u4e00\u81f3\u9031\u65e508:30-21:00","latitude":"22.768014","longitude":"121.136344"},{"dealername":"\u532f\u8c50","name":"\u65d7\u5c71","address":"\u9ad8\u96c4\u5e02\u65d7\u5c71\u5340\u4e2d\u83ef\u8def1112\u865f","tel":"(07)6617631","fullname":"\u532f\u8c50\u6c7d\u8eca\u65d7\u5c71\u5c55\u793a\u4e2d\u5fc3","business_time":"\u9031\u4e00\u81f3\u9031\u65e508:30-21:00","latitude":"22.877919","longitude":"120.482032"},{"dealername":"\u532f\u8c50","name":"\u4ec1\u5fb7","address":"\u81fa\u5357\u5e02\u6b78\u4ec1\u5340\u4e2d\u5c71\u8def\u4e09\u6bb5652\u4e4b1\u865f","tel":"(06)2390250","fullname":"\u532f\u8c50\u6c7d\u8eca\u4ec1\u5fb7\u5c55\u793a\u4e2d\u5fc3","business_time":"\u9031\u4e00\u81f3\u9031\u65e508:30-21:00","latitude":"22.969543","longitude":"120.272486"},{"dealername":"\u532f\u8c50","name":"\u7af9\u6771","address":"\u65b0\u7af9\u7e23\u7af9\u6771\u93ae\u4e2d\u8208\u8def\u4e00\u6bb5142\u865f","tel":"(03)5821123","fullname":"\u532f\u8c50\u6c7d\u8eca\u7af9\u6771\u5c55\u793a\u4e2d\u5fc3","business_time":"\u9031\u4e00\u81f3\u9031\u65e508:30-21:00","latitude":"24.754457","longitude":"121.07247"},{"dealername":"\u532f\u8c50","name":"\u9ebb\u8c46","address":"\u81fa\u5357\u5e02\u9ebb\u8c46\u5340\u5c0f\u57e4\u91cc\u82d3\u5b50\u679716\u4e4b10\u865f","tel":"(06)5700220","fullname":"\u532f\u8c50\u6c7d\u8eca\u9ebb\u8c46\u5c55\u793a\u4e2d\u5fc3","business_time":"\u9031\u4e00\u81f3\u9031\u65e508:30-21:00","latitude":"23.181776","longitude":"120.233856"},{"dealername":"\u532f\u8c50","name":"\u8c50\u539f","address":"\u81fa\u4e2d\u5e02\u6f6d\u5b50\u5340\u4e2d\u5c71\u8def\u4e09\u6bb5460\u865f","tel":"(04)25324143","fullname":"\u532f\u8c50\u6c7d\u8eca\u8c50\u539f\u5c55\u793a\u4e2d\u5fc3","business_time":"\u9031\u4e00\u81f3\u9031\u65e508:30-21:00","latitude":"24.235141","longitude":"120.710082"},{"dealername":"\u532f\u8c50","name":"\u5609\u7fa9","address":"\u5609\u7fa9\u5e02\u5609\u7fa9\u5e02\u5fe0\u5b5d\u8def730\u865f","tel":"(05)2773100","fullname":"\u532f\u8c50\u6c7d\u8eca\u5609\u7fa9\u5c55\u793a\u4e2d\u5fc3","business_time":"\u5468\u4e00\u81f3\u5468\u65e508:30-21:00","latitude":"23.50535","longitude":"120.447839"},{"dealername":"\u532f\u8c50","name":"\u6597\u516d","address":"\u96f2\u6797\u7e23\u6597\u516d\u5e02\u6587\u5316\u8def678\u865f","tel":"(05)5333789","fullname":"\u532f\u8c50\u6c7d\u8eca\u6597\u516d\u5c55\u793a\u4e2d\u5fc3","business_time":"\u9031\u4e00\u81f3\u9031\u65e508:30-21:00","latitude":"23.71448","longitude":"120.561813"},{"dealername":"\u532f\u8c50","name":"\u82b1\u84ee","address":"\u82b1\u84ee\u7e23\u82b1\u84ee\u5e02\u548c\u5e73\u8def536\u865f","tel":"(03)8351657","fullname":"\u532f\u8c50\u6c7d\u8eca\u82b1\u84ee\u5c55\u793a\u4e2d\u5fc3","business_time":"\u9031\u4e00\u81f3\u9031\u65e508:30-21:00","latitude":"23.977965","longitude":"121.600569"},{"dealername":"\u532f\u8c50","name":"\u5927\u7532","address":"\u81fa\u4e2d\u5e02\u5927\u7532\u5340\u7d93\u570b\u8def1391\u865f","tel":"(04)26882251","fullname":"\u532f\u8c50\u6c7d\u8eca\u5927\u7532\u5c55\u793a\u4e2d\u5fc3","business_time":"\u9031\u4e00\u81f3\u9031\u65e508:30-21:00","latitude":"24.361811","longitude":"120.635101"},{"dealername":"\u532f\u8c50","name":"\u53f0\u5357","address":"\u81fa\u5357\u5e02\u6c38\u5eb7\u5340\u4e2d\u6b63\u5317\u8def306\u865f","tel":"(06)2543538","fullname":"\u532f\u8c50\u6c7d\u8eca\u53f0\u5357\u5c55\u793a\u4e2d\u5fc3","business_time":"\u9031\u4e00\u81f3\u9031\u65e508:30-21:00","latitude":"23.041351","longitude":"120.24675"},{"dealername":"\u532f\u8c50","name":"\u53f0\u5317","address":"\u81fa\u5317\u5e02\u4e2d\u5c71\u5340\u6c11\u65cf\u6771\u8def97\u865f","tel":"(02)25157890","fullname":"\u532f\u8c50\u6c7d\u8eca\u53f0\u5317\u5c55\u793a\u4e2d\u5fc3","business_time":"\u9031\u4e00\u81f3\u9031\u65e508:30-21:00","latitude":"25.068585","longitude":"121.537802"},{"dealername":"\u532f\u8c50","name":"\u6597\u5357","address":"\u96f2\u6797\u7e23\u6597\u5357\u5e02\u5927\u696d\u8def172\u865f","tel":"(05)5973151","fullname":"\u532f\u8c50\u6c7d\u8eca\u6597\u5357\u5c55\u793a\u4e2d\u5fc3","business_time":"\u9031\u4e00\u81f3\u9031\u65e508:30-21:00","latitude":"23.683333","longitude":"120.483333"},{"dealername":"\u532f\u8c50","name":"\u9f8d\u6f6d","address":"\u6843\u5712\u5e02\u9f8d\u6f6d\u5340\u5927\u660c\u8def1\u6bb5300\u865f","tel":"(03)4899201","fullname":"\u532f\u8c50\u6c7d\u8eca\u9f8d\u6f6d\u5c55\u793a\u4e2d\u5fc3","business_time":"\u9031\u4e00\u81f3\u9031\u65e508:30-21:00","latitude":"24.860858","longitude":"121.218038"},{"dealername":"\u532f\u8c50","name":"\u5b89\u5e73","address":"\u81fa\u5357\u5e02\u5357\u5340\u4e2d\u83ef\u897f\u8def\u4e00\u6bb5185\u865f","tel":"(06)2618171","fullname":"\u532f\u8c50\u6c7d\u8eca\u5b89\u5e73\u5c55\u793a\u4e2d\u5fc3","business_time":"\u9031\u4e00\u81f3\u9031\u65e508:30-21:00","latitude":"22.982941","longitude":"120.185997"},{"dealername":"\u532f\u8c50","name":"\u4e2d\u58e2","address":"\u6843\u5712\u5e02\u4e2d\u58e2\u5340\u74b0\u4e2d\u6771\u8def\u4e8c\u6bb5152\u865f","tel":"(03)4567822","fullname":"\u532f\u8c50\u6c7d\u8eca\u4e2d\u58e2\u5c55\u793a\u4e2d\u5fc3","business_time":"\u9031\u4e00\u81f3\u9031\u65e508:30-21:00","latitude":"24.949444","longitude":"121.237084"},{"dealername":"\u532f\u8c50","name":"\u6843\u5712","address":"\u6843\u5712\u5e02\u6843\u5712\u5340\u6587\u4e2d\u8def627\u865f","tel":"(03)3793151","fullname":"\u532f\u8c50\u6c7d\u8eca\u6843\u5712\u5c55\u793a\u4e2d\u5fc3","business_time":"\u9031\u4e00\u81f3\u9031\u65e508:30-21:00","latitude":"24.992089","longitude":"121.300691"},{"dealername":"\u532f\u8c50","name":"\u65b0\u838a","address":"\u65b0\u5317\u5e02\u65b0\u838a\u5340\u601d\u6e90\u8def56\u865f","tel":"(02)29913338","fullname":"\u532f\u8c50\u6c7d\u8eca\u65b0\u838a\u5c55\u793a\u4e2d\u5fc3","business_time":"\u9031\u4e00\u81f3\u9031\u65e508:30-21:00","latitude":"25.044349","longitude":"121.460269"},{"dealername":"\u532f\u8c50","name":"\u82d7\u6817","address":"\u82d7\u6817\u7e23\u82d7\u6817\u5e02\u6c34\u6e90\u91cc\u6c34\u6d41\u5a187\u865f","tel":"(03)7221488","fullname":"\u532f\u8c50\u6c7d\u8eca\u82d7\u6817\u5c55\u793a\u4e2d\u5fc3","business_time":"\u5468\u4e00\u81f3\u5468\u65e508:30-21:00","latitude":"24.538278","longitude":"120.81422"},{"dealername":"\u532f\u8c50","name":"\u571f\u57ce","address":"\u65b0\u5317\u5e02\u571f\u57ce\u5340\u4e2d\u83ef\u8def\u4e00\u6bb5148\u865f","tel":"(02)22652277","fullname":"\u532f\u8c50\u6c7d\u8eca\u571f\u57ce\u5c55\u793a\u4e2d\u5fc3","business_time":"\u9031\u4e00\u81f3\u9031\u65e508:30-21:00","latitude":"24.985534","longitude":"121.442492"},{"dealername":"\u532f\u8c50","name":"\u65b0\u71df","address":"\u81fa\u5357\u5e02\u65b0\u71df\u5340\u6c11\u6cbb\u8def306\u865f","tel":"(06)6562111","fullname":"\u532f\u8c50\u6c7d\u8eca\u65b0\u71df\u5c55\u793a\u4e2d\u5fc3","business_time":"\u9031\u4e00\u81f3\u9031\u65e508:30-21:00","latitude":"23.307242","longitude":"120.303864"},{"dealername":"\u532f\u8c50","name":"\u6a39\u6797","address":"\u65b0\u5317\u5e02\u6a39\u6797\u5340\u4e2d\u6b63\u8def153-1\u865f","tel":"(02)26852361","fullname":"\u532f\u8c50\u6c7d\u8eca\u6a39\u6797\u5c55\u793a\u4e2d\u5fc3","business_time":"\u9031\u4e00\u81f3\u9031\u65e508:30-21:00","latitude":"25.001304","longitude":"121.424568"},{"dealername":"\u532f\u8c50","name":"\u65b0\u7af9","address":"\u65b0\u7af9\u5e02\u65b0\u7af9\u5e02\u4e2d\u83ef\u8def\u4e00\u6bb5257-6\u865f","tel":"(03)5327111","fullname":"\u532f\u8c50\u6c7d\u8eca\u65b0\u7af9\u5c55\u793a\u4e2d\u5fc3","business_time":"\u9031\u4e00\u81f3\u9031\u65e508:30-21:00","latitude":"24.778289","longitude":"120.988108"}]